name,temp,humidity,clouds,wind,lat,lon,id
Nambucca Heads,6.99,70,0,3.1,-30.64,152.99,1
Arraial do Cabo,22,78,0,11.3,-22.97,-42.02,1
Thompson,16,55,75,4.6,55.74,-97.86,1
Leo,24.57,82,95,1.62,11.1,-2.1,1
Port Alfred,15.56,91,0,0.45,-33.59,26.89,1
Bredasdorp,16.56,54,0,1.5,-34.53,20.04,1
Christchurch,3.31,93,94,2.6,-43.53,172.64,1
Ponta Delgada,20,72,75,4.1,37.73,-25.67,1
Matinha,26.27,78,19,1.66,-3.1,-45.04,1
Busselton,6.05,72,0,5.36,-33.64,115.35,1
Tasiilaq,5,80,75,3.6,65.61,-37.64,1
Altamont,13.81,62,1,3.1,49.4,-98.5,1
Avarua,24,83,100,4.6,-21.21,-159.78,1
Atuona,25.87,75,0,6.87,-9.8,-139.03,1
Black River,32,66,20,8.2,18.03,-77.85,1
Mar del Plata,10.57,42,27,5.02,-46.43,-67.52,1
Barrow,10.97,92,100,4.38,-38.31,-60.23,1
Saskylakh,8.97,91,100,7.32,71.97,114.09,1
Ippy,22.17,88,99,1.64,6.26,21.2,1
Narsaq,11,50,75,3.6,60.91,-46.05,1
Juba,11.06,81,77,1,57.82,26.93,1
Rikitea,19.17,66,24,10.39,-23.12,-134.97,1
Sar-e Pul,15.37,22,0,0.84,36.22,65.93,1
Hobart,2.87,86,75,4.1,-42.88,147.33,1
Soto la Marina,31.67,54,13,5.07,23.77,-98.21,1
Vila Franca do Campo,20,72,75,4.1,37.72,-25.43,1
Itoman,26.13,88,75,4.6,26.12,127.67,1
Cabo San Lucas,29.94,49,40,5.1,22.89,-109.91,1
Vaini,24.27,94,100,3.33,15.34,74.49,1
Ushuaia,6,56,20,6.7,-54.81,-68.31,1
Srednekolymsk,3.87,65,0,1.72,67.46,153.71,1
La Ronge,15,72,90,3.6,55.1,-105.3,1
Yellowknife,11.82,58,75,3.1,62.45,-114.38,1
Waddan,25.87,60,0,7.32,29.16,16.14,1
Faanui,23.77,69,94,8.06,-16.48,-151.75,1
Mataura,5.56,76,99,1.79,-46.19,168.86,1
Port Blair,27.87,82,100,8.42,11.67,92.75,1
Azuaga,22.78,61,29,0.45,38.26,-5.68,1
Lata,3.27,89,0,0.55,30.78,78.62,1
Padang,26.67,84,98,6.5,-0.92,100.36,1
Saint George,21.47,60,40,2.6,39.45,22.34,1
Birjand,19,19,0,2.1,32.86,59.22,1
Alofi,23,60,40,6.7,-19.06,-169.92,1
Port-Gentil,25,88,20,4.1,-0.72,8.78,1
Mana,25.47,73,2,0.16,13.03,5.27,1
Punta Arenas,6.9,56,40,7.2,-53.16,-70.91,1
Tsybuliv,16.87,55,72,2.6,49.08,29.85,1
Auki,24.27,88,100,2.14,12.18,6.51,1
Leningradskiy,7.07,75,0,3.31,69.38,178.42,1
Lasa,24.09,83,40,2.6,34.92,32.53,1
Pangnirtung,8,70,90,7.2,66.15,-65.72,1
Kodiak,27.07,61,1,4.6,39.95,-94.76,1
Popondetta,14.87,55,37,1.86,-8.77,148.24,1
Avera,35.31,34,1,3.1,33.19,-82.53,1
Ambulu,22.87,87,100,1.8,-8.35,113.61,1
Chinsali,15.77,57,0,4.95,-10.55,32.07,1
Puerto Ayora,23.83,47,20,10.8,-0.74,-90.35,1
Ambilobe,24.47,57,100,4.28,-13.19,49.05,1
Atar,35.77,27,14,4.06,20.52,-13.05,1
Kavaratti,28.27,79,100,9.16,10.57,72.64,1
Castro,9,87,75,3.6,-42.48,-73.76,1
Diego de Almagro,15.17,53,89,2.95,-26.39,-70.05,1
Mentougou,23.53,88,0,1,39.94,116.09,1
Beringovskiy,9.47,67,100,2.6,63.05,179.32,1
Mount Gambier,8,93,75,4.1,-37.83,140.78,1
Malm,9.93,93,20,2.1,64.07,11.22,1
Butaritari,29.27,61,67,2.41,3.07,172.79,1
Kapaa,29.68,58,40,7.2,22.08,-159.32,1
Jasper,34.16,44,1,3.7,33.83,-87.28,1
Grand Gaube,22.36,73,75,5.7,-20.01,57.66,1
Te Anau,1.87,89,100,3.2,-45.41,167.72,1
Dikson,5.97,98,100,8.51,73.51,80.55,1
Yafran,20.57,64,2,4.2,32.06,12.53,1
Mahebourg,22.22,73,75,5.7,-20.41,57.7,1
Sagua la Grande,32,55,75,4.1,22.81,-80.07,1
Riohacha,31,74,20,4.1,11.54,-72.91,1
Nanortalik,6.27,73,67,15.06,60.14,-45.24,1
Chokurdakh,5.07,88,100,3.26,70.62,147.9,1
Torbay,13.65,76,75,9.8,47.66,-52.73,1
San Cristobal,31.87,32,12,2.22,14.68,-86.92,1
Nikolskoye,12.02,81,0,1,59.7,30.79,1
Bluff,13.97,33,0,2.72,-23.58,149.07,1
Cidreira,19.07,83,72,5.72,-30.17,-50.22,1
Hamilton,22.02,64,40,3.6,43.26,-79.87,1
Port Elizabeth,25.49,44,75,4.6,39.31,-74.98,1
Grindavik,10.53,100,90,6.2,63.84,-22.43,1
Angoche,20.07,72,9,4.05,-16.23,39.91,1
Pauini,31.67,48,100,1.56,-7.71,-67,1
Georgetown,31.07,70,40,6.2,6.8,-58.16,1
Luancheng,18,88,0,1,37.88,114.65,1
Muros,17.26,77,0,4.1,42.77,-9.06,1
Hauterive,10.32,66,90,5.7,49.18,-68.27,1
Adrar,31,29,0,3.6,27.87,-0.29,1
Alamos,16.47,55,36,2.44,-36.9,-62.36,1
Qaanaaq,-1.03,44,0,4.37,77.48,-69.36,1
Clyde River,6,70,40,6.7,70.47,-68.59,1
Lorengau,25.57,84,98,4.83,-2.02,147.27,1
Albany,19.91,56,75,5.7,42.65,-73.75,1
Tulun,1.47,94,0,0.29,54.56,100.58,1
Cape Town,19.69,55,0,0.5,-33.93,18.42,1
Pevek,3.37,92,100,6.17,69.7,170.27,1
Port Lincoln,13.37,75,87,10.79,-34.72,135.86,1
Ribeira Grande,21,64,75,4.1,38.52,-28.7,1
Garowe,26.57,48,41,10.25,8.41,48.48,1
Longyearbyen,2,80,75,10.3,78.22,15.63,1
Jamestown,4.47,95,72,3.66,-33.21,138.6,1
Carnarvon,17.27,35,0,5.03,-30.97,22.13,1
San Jeronimo,11,71,90,6.2,-13.65,-73.37,1
Codrington,9.61,61,0,2.1,-28.95,153.24,1
Aklavik,16.74,58,40,4.6,68.22,-135.01,1
Batagay-Alyta,0.57,91,100,1.8,67.8,130.41,1
North Bend,18.1,77,90,3.6,43.41,-124.22,1
Pisco,19.68,30,0,7.7,-13.71,-76.2,1
Salekhard,11.47,88,30,3.79,66.54,66.62,1
Geraldton,11,76,75,4.1,49.72,-86.95,1
Ambanja,25.67,74,44,0.77,-13.68,48.45,1
Fortuna,18.93,68,90,5.1,40.6,-124.16,1
Cayenne,31,58,100,2.1,4.94,-52.33,1
Kalmunai,23.87,80,93,1.1,7.42,81.82,1
Kargopol,8.47,89,0,1.02,61.51,38.95,1
Sao Joao da Barra,22.48,64,75,9.3,-21.64,-41.05,1
Port Hardy,14,93,90,1.5,50.7,-127.42,1
New Norfolk,2.99,86,75,4.1,-42.78,147.06,1
Hilo,26.05,69,75,2.1,19.71,-155.08,1
Portland,17.44,55,40,5.7,43.66,-70.25,1
Fayaoue,21.87,54,100,1.46,-20.65,166.53,1
Cartagena del Chaira,28.27,66,54,0.7,1.33,-74.84,1
Kutum,27.67,45,93,2.92,14.2,24.66,1
Ponta do Sol,23.87,52,0,2.54,-20.63,-46,1
Gua Musang,18.57,95,95,0.57,4.88,101.97,1
Ancud,9,87,75,3.6,-41.87,-73.83,1
Kingori,20,64,20,0.89,-3.38,37.02,1
Hasaki,23.24,94,40,0.5,35.73,140.83,1
Los Llanos de Aridane,20.61,64,75,6.7,28.66,-17.92,1
Taybad,14.47,27,0,2.33,34.74,60.78,1
Lyngseidet,4.05,93,0,3.1,69.58,20.21,1
Maple Creek,20.17,46,45,2.54,49.91,-109.46,1
Bandarbeyla,24.07,73,100,11.81,9.49,50.81,1
Hithadhoo,27.97,80,99,5.47,-0.6,73.08,1
Makakilo City,30.32,51,1,8.2,21.35,-158.09,1
Comodoro Rivadavia,11,71,20,4.6,-45.87,-67.48,1
Santa Cruz Cabralia,24,73,75,3.1,-16.28,-39.02,1
Redlands,33.34,21,5,3.1,34.06,-117.19,1
Chuy,16.27,97,100,1.24,-33.69,-53.46,1
Severo-Kurilsk,10.37,96,100,9.09,50.68,156.12,1
Katsuura,26,94,40,4.1,33.93,134.5,1
Namatanai,25.07,81,100,7.22,-3.66,152.44,1
Ghanzi,15.67,47,0,4.24,-21.7,21.65,1
Saint-Philippe,16.77,93,90,5.1,45.36,-73.48,1
Shizuishan,15.47,63,95,0.73,39.02,106.36,1
Panama City,33.38,49,1,4.6,30.16,-85.65,1
Bubaque,25.67,83,100,6.18,11.28,-15.83,1
Broome,11.16,81,20,2.6,52.47,1.45,1
Zaton,19,82,20,0.5,43.23,17.84,1
Turukhansk,10.57,87,91,3.5,65.8,87.96,1
Zhuhai,17,63,0,2,40.71,112.04,1
Doha,34.95,27,0,5.1,25.29,51.53,1
Acapulco,32,70,75,3.1,16.86,-99.88,1
Kruisfontein,19.77,40,0,2.67,-34,24.73,1
Tuktoyaktuk,16,63,20,5.1,69.44,-133.03,1
Sarreguemines,11.48,93,75,1,49.11,7.07,1
Abu Samrah,20.27,88,0,3.58,35.3,37.18,1
Hermanus,18.33,57,0,2.92,-34.42,19.24,1
Ostrovnoy,7.77,88,94,2.1,68.05,39.51,1
Zyryanka,6.57,59,2,1.4,65.73,150.89,1
Provideniya,8.57,87,100,3.52,64.42,-173.23,1
Omboue,24.47,86,96,6.4,-1.57,9.26,1
Tuatapere,5.56,76,58,1.79,-46.13,167.69,1
Cabra,23.89,39,88,2.1,37.47,-4.43,1
Sao Felix do Xingu,28.17,50,87,1.27,-6.64,-51.99,1
Nichinan,22.97,96,5,1.34,31.65,131.31,1
Cefalu,19.29,76,41,1.34,38.04,14.02,1
Dengzhou,21.47,54,0,0.52,32.69,112.08,1
Margate,2.99,86,75,4.1,-43.03,147.26,1
Sao Filipe,27.47,81,24,3.05,14.9,-24.5,1
Banff,20.56,60,8,2.68,51.18,-115.57,1
Saint-Georges,12.45,15,100,0.45,46.12,-70.67,1
Simbahan,28.07,82,0,4.49,6.3,120.58,1
Esperance,11,100,100,2.6,-33.86,121.89,1
Airai,18.57,51,0,1.81,-8.93,125.41,1
Amapa,32.12,59,20,7.2,15.09,-87.97,1
Jiwani,29.87,73,0,1.85,25.05,61.74,1
Bogo,23.77,86,97,4.45,10.74,14.61,1
Moindou,15,93,0,1,-21.69,165.68,1
Taksimo,5.17,82,100,4.41,56.36,114.84,1
Odessa,34.49,26,40,6.2,31.85,-102.37,1
Saint Anthony,21.33,40,1,1.5,43.97,-111.68,1
Sergeyevka,10.47,87,100,5.48,53.88,67.42,1
Lebu,12.87,84,43,0.69,8.96,38.73,1
Banda Aceh,28.27,80,100,8.23,5.56,95.32,1
Nyurba,2.57,95,10,1.57,63.29,118.35,1
Potsdam,13.92,87,100,1,52.4,13.06,1
Fare,23.47,68,69,8.06,-16.7,-151.02,1
Tazovskiy,9.67,83,0,6.75,67.47,78.7,1
Kununurra,19,82,0,1.98,-15.77,128.74,1
Basco,25.79,57,40,1.19,40.33,-91.2,1
Victoria,27.38,83,75,0.96,5.28,115.24,1
Krabi,24.58,100,20,4.23,8.06,98.92,1
Norman Wells,15,67,20,4.6,65.28,-126.83,1
Mattru,23.57,96,100,1.5,7.62,-11.83,1
Kirkland Lake,15,82,40,5.1,48.15,-80.03,1
Marsa Matruh,26,69,0,5.1,31.35,27.25,1
Taoudenni,36.17,23,69,8.59,22.68,-3.98,1
Hagere Hiywet,12.17,90,51,0.31,8.98,37.85,1
Mitu,15.77,45,0,2.01,36.2,46.09,1
Farah,18.27,19,0,2.5,32.37,62.11,1
Ulaangom,9.67,67,23,2.22,49.98,92.07,1
Broken Hill,5,75,0,3.6,-31.97,141.45,1
Bambous Virieux,22.25,73,75,5.7,-20.34,57.76,1
Kumluca,19.07,61,21,2.21,36.37,30.29,1
Winkler,13.41,62,1,3.1,49.19,-97.94,1
Luderitz,13,87,0,1.5,-26.65,15.16,1
Katy,36.59,35,1,3.9,29.79,-95.82,1
Nouakchott,30,62,0,8.2,18.08,-15.98,1
Lazaro Cardenas,29.86,45,75,4.6,28.39,-105.62,1
Blejoi,20.5,68,0,1,44.99,26.01,1
Kloulklubed,28,83,90,5.1,7.04,134.26,1
Upernavik,5.27,78,99,6.3,72.79,-56.15,1
San Patricio,28.57,56,100,1.37,-26.98,-56.83,1
Saquena,33.87,43,32,0.5,-4.67,-73.52,1
Udayagiri,20.47,87,100,5.49,12.32,76.68,1
Leh,6.07,48,0,3.6,34.16,77.58,1
Ayan,12.57,69,87,2.23,38.23,44.7,1
Viedma,12.37,69,25,2.95,-40.81,-62.99,1
Harper,34.36,28,75,3.1,30.3,-99.24,1
Tiksi,2.87,87,100,2.56,71.64,128.87,1
Champerico,31,48,75,3.1,16.38,-93.6,1
Chegdomyn,15.07,97,100,2.15,51.13,133.04,1
Nome,34.89,44,1,3.6,30.04,-94.42,1
Strezhevoy,6,100,0,3,60.73,77.6,1
Iquitos,32,55,75,1.5,-3.75,-73.25,1
East London,17.77,54,0,2.83,-33.02,27.91,1
Anchorage,11.17,76,90,5.1,61.22,-149.89,1
Mapiripan,31.77,53,28,1.31,2.89,-72.13,1
Fairbanks,16.2,47,1,3.1,64.84,-147.72,1
Bilibino,5.07,82,95,1.48,68.06,166.44,1
Guerrero Negro,22.17,84,4,5.63,27.97,-114.04,1
Mala,15.57,87,0,5.92,-12.66,-76.63,1
Lagoa,22,69,0,0.5,37.14,-8.45,1
Matamoros,32.48,55,20,6.2,25.87,-97.51,1
Buala,25.87,83,100,1.68,-8.15,159.59,1
Ilulissat,6,60,0,2.1,69.22,-51.1,1
Paka,20.97,97,56,1.18,4.15,15.03,1
Komsomolskiy,9.57,96,85,3.92,67.55,63.78,1
San Francisco,26,31,40,7.7,1.17,-76.88,1
Rio Cuarto,19,34,0,6.7,-33.13,-64.35,1
Poum,13.27,84,0,0.23,41.28,20.71,1
Beira,16.25,82,75,3.1,43.2,-8.36,1
Kaitangata,5.56,63,94,1.79,-46.28,169.85,1
Pervomayskiy,15.37,85,17,2.13,53.24,40.29,1
Vestmannaeyjar,10.87,97,100,4.65,63.44,-20.27,1
Bathsheba,31,66,20,3.6,13.22,-59.52,1
Constitucion,22.92,53,75,1.5,23.99,-104.67,1
Tainan,27.33,78,75,1.18,22.99,120.21,1
La Tuque,9.97,97,100,1.06,47.44,-72.79,1
Guane,29.37,68,86,4.49,22.2,-84.09,1
Sao Gotardo,28.33,45,18,3.13,-19.31,-46.05,1
Nisia Floresta,26,69,40,9.8,-6.09,-35.21,1
Lensk,7.77,94,100,2.88,60.71,114.91,1
Souillac,16.68,72,0,3.1,45.6,-0.6,1
Sitka,35.57,28,59,7.6,37.17,-99.65,1
Kasongo-Lunda,21.87,83,100,2.22,-6.48,16.82,1
Calatayud,19.6,72,0,3.1,41.35,-1.64,1
Bulgan,3.07,91,100,1.47,48.81,103.53,1
Watsa,18.17,97,0,0.92,3.04,29.53,1
Nishihara,25.41,88,75,2.34,35.74,139.53,1
Santa Rosa,16.77,45,47,2.8,-36.62,-64.29,1
Suhbaatar,1.97,77,5,2.74,50.23,106.21,1
Pierre,17.97,82,90,6.2,44.37,-100.35,1
Vanimo,26.07,81,38,3.68,-2.67,141.3,1
Verkhnevilyuysk,1.87,95,0,1.85,63.45,120.31,1
Touros,26,74,40,5.1,-5.2,-35.46,1
Kilindoni,26.17,72,0,10.79,-7.91,39.67,1
Colomi,20,37,75,4.6,-17.34,-65.87,1
Winnemucca,28.63,16,1,3.1,40.97,-117.74,1
Camaragibe,25,78,75,7.2,-8.02,-34.98,1
Cherskiy,3.67,83,100,5.9,68.75,161.3,1
Kieta,25.37,77,100,4.97,-6.22,155.63,1
Macau,27.37,67,56,7.18,-5.11,-36.64,1
Bull Savanna,29.67,63,86,2.34,17.89,-77.59,1
Dubai,32.65,84,12,3.1,25.27,55.3,1
Chisec,31.27,52,0,2.96,15.81,-90.29,1
Nosy Varika,18.07,90,100,4.71,-20.58,48.53,1
Dolores,15.56,85,99,6.26,-33.53,-58.22,1
Intipuca,33,49,20,3.1,13.2,-88.05,1
San Policarpo,26.07,86,35,2.41,12.18,125.51,1
Tamsweg,9.72,100,75,1,47.13,13.81,1
Thinadhoo,28.17,77,96,4.45,0.53,72.93,1
Khatanga,9.27,90,82,7.24,71.98,102.47,1
Raudeberg,10.23,62,0,4.1,61.99,5.14,1
Kailua,30.32,58,20,6.2,21.39,-157.74,1
Port Shepstone,11.17,91,0,3.49,-30.74,30.45,1
Talnakh,11,93,0,8,69.49,88.39,1
Gorom-Gorom,29.27,57,67,3.96,14.45,-0.24,1
Ballina,12.3,91,0,0.45,54.11,-9.15,1
Mayo,16,41,40,2.6,63.59,-135.9,1
Narrabri,3.64,55,0,1,-30.33,149.78,1
Banjar,21.17,95,98,0.73,-7.37,108.54,1
Westport,22.78,46,75,4.6,41.14,-73.36,1
Charlestown,21.51,49,40,2.6,41.38,-71.64,1
Kavieng,27.27,74,100,3.56,-2.57,150.8,1
Saldanha,19.37,27,43,3.81,41.42,-6.55,1
Dillon,19.87,45,1,2.1,45.22,-112.64,1
Necochea,10.56,95,100,6.26,-38.55,-58.74,1
Anjozorobe,15,72,75,6.7,-18.4,47.88,1
Lavrentiya,7.87,97,100,2.89,65.58,-170.99,1
Praia da Vitoria,20,82,75,6.27,38.73,-27.07,1
Rocky Mountain House,22.07,52,65,2.56,52.38,-114.92,1
Bethel,11.95,76,75,9.8,60.79,-161.76,1
Port Macquarie,8.98,57,0,2.6,-31.43,152.91,1
Skibbereen,14,67,40,2.1,51.55,-9.27,1
Homer,10.92,81,90,2.6,59.64,-151.54,1
Danilov,12,93,0,2.13,58.19,40.17,1
Abu Kamal,26.37,52,0,7.05,34.45,40.92,1
Turangi,7.22,90,100,0.45,-39,175.93,1
Erenhot,13.37,61,0,3.06,43.65,111.97,1
Walvis Bay,14.28,87,0,1.5,-22.95,14.51,1
Dunedin,5.56,69,100,5.36,-45.87,170.5,1
Kuryk,19.27,52,100,4.32,43.18,51.68,1
Saint-Augustin,16.67,93,90,5.1,45.63,-73.98,1
Burnie,5,84,1,1.27,-41.05,145.91,1
Bambanglipuro,24.27,83,100,7.78,-7.95,110.28,1
Baruun-Urt,6.77,88,68,1.58,46.68,113.28,1
Paros,6.57,91,0,1.74,44.39,3.51,1
Manokwari,22.87,62,97,2.32,-0.87,134.08,1
Biak,15.57,97,54,2.23,-0.91,122.88,1
Nanakuli,30.32,51,1,8.2,21.39,-158.15,1
Shahr-e Babak,20.67,18,0,1.21,30.12,55.12,1
Aranda de Duero,12.37,67,0,6.93,41.67,-3.69,1
Yulara,12,30,0,3.6,-25.24,130.99,1
Orcopampa,2.97,68,100,3.57,-15.27,-72.34,1
Green River,23.94,19,1,10.3,41.53,-109.47,1
Solnechnyy,15.57,98,100,0.75,50.72,136.64,1
Marienburg,11.24,87,20,1.5,52.12,9.98,1
Galle,22.17,96,100,1.46,10.08,-12.83,1
Paamiut,4.97,84,96,9.07,61.99,-49.67,1
Acari,28.07,53,88,8.22,-6.44,-36.64,1
Egvekinot,7.37,70,68,3.75,66.32,-179.17,1
Aswan,34,20,0,5.1,24.09,32.9,1
Mweka,22.07,83,100,1.27,-4.85,21.56,1
Caravelas,21.77,78,69,4.8,-17.73,-39.27,1
Jiexiu,18.87,47,0,0.98,37.02,111.92,1
Muyezerskiy,9.67,71,100,2.14,63.93,31.65,1
Freilassing,11.61,87,75,2.1,47.84,12.98,1
Toamasina,20,88,75,6.2,-18.17,49.38,1
Pangody,10.97,84,0,6.27,65.85,74.49,1
Mahibadhoo,28.97,69,100,1.59,3.78,72.97,1
Keti Bandar,28.07,86,100,7.18,24.14,67.45,1
College,16.3,47,1,3.1,64.86,-147.8,1
Den Chai,24.44,99,64,0.85,17.98,100.06,1
Elk Point,19,55,75,4.6,53.9,-110.9,1
Killybegs,10,91,7,0.45,54.63,-8.45,1
Opuwo,17.37,49,21,1.28,-18.06,13.84,1
Dingle,23.37,88,18,1.96,11,122.67,1
Tual,24.67,84,76,8.2,-5.67,132.75,1
Edd,31.57,52,70,2.99,13.93,41.69,1
Coruripe,20.57,88,100,3.11,-10.12,-36.18,1
Zarubino,20.57,94,100,8.45,42.65,131.06,1
Midland,34.5,26,40,6.2,32,-102.08,1
Mezen,7.77,93,0,2.63,65.85,44.24,1
Puerto del Rosario,24.44,65,75,5.7,28.5,-13.86,1
Vidim,11.74,87,0,1.5,50.47,14.53,1
Astana,8,100,75,1,51.13,71.43,1
Palmer,10.59,76,75,4.6,-34.85,139.16,1
Sabang,26.11,83,100,1.48,13.8,121.11,1
Nurota,17,39,13,3.1,40.56,65.69,1
Vardo,25.76,36,75,6.2,39.62,-77.74,1
Mount Isa,15,26,0,4.1,-20.73,139.49,1
Vila Velha,26.96,69,0,8.2,-3.71,-38.6,1
Kirakira,25.67,82,17,2.08,-10.46,161.92,1
Wolgast,15,73,100,3.11,54.05,13.77,1
Berdigestyakh,3.87,95,44,3.23,62.1,126.7,1
Havelock,30.38,43,40,3.6,34.88,-76.9,1
Mehndawal,27.37,77,0,3.55,26.98,83.11,1
Santa Margherita Ligure,19.75,68,75,2.6,44.33,9.21,1
Jumla,11.17,95,24,1.15,29.28,82.18,1
Chicama,18,82,40,6.2,-7.84,-79.15,1
Kanevskaya,19.17,48,0,3.85,46.07,38.97,1
Moosomin,15.97,42,100,2.8,50.14,-101.67,1
Buluang,28,69,75,1.5,10.47,123.98,1
Luwuk,15.57,97,54,2.23,-0.95,122.79,1
Maceio,25,69,90,5.1,-9.67,-35.74,1
Tefe,32,62,40,2.1,-3.35,-64.71,1
Orange,3.89,98,99,4.02,-33.28,149.1,1
Havoysund,5,80,74,5.1,71,24.66,1
Shu,13.97,32,49,3.17,43.6,73.76,1
Mithi,29.67,73,91,5.06,24.74,69.8,1
Husavik,14.74,55,100,4.87,50.56,-96.99,1
Diamantino,37.67,12,38,4.22,-14.4,-56.44,1
Gat,24,94,20,2.1,14.69,-16.54,1
Caboolture,13.37,40,0,4.6,-27.08,152.95,1
Peterborough,20.36,64,20,4.6,44.3,-78.32,1
Hirtshals,12.22,90,1,7.66,57.59,9.96,1
Luba,24.27,90,100,1.83,17.32,120.7,1
Nabire,19.97,98,100,1.91,-3.36,135.5,1
Hofn,5.07,99,100,3.07,64.25,-15.21,1
Bianzhuang,13.37,80,0,1.47,39.44,112.12,1
Rawson,13.17,38,5,4.94,-43.3,-65.11,1
Shingu,20.07,98,33,1.99,33.72,135.99,1
Cockburn Town,30,70,40,5.7,21.46,-71.14,1
Anadyr,7.88,81,0,5,64.73,177.51,1
Mangit,16,59,0,2.1,40.6,70.96,1
Praya,23,94,75,7.06,-8.71,116.27,1
Coquimbo,15,67,0,7.2,-29.95,-71.34,1
Gornopravdinsk,6.97,93,55,1.65,60.06,69.92,1
Zhezkazgan,9.27,74,0,2.86,47.8,67.71,1
Eenhana,23.87,16,12,5.99,-17.48,16.34,1
Kirovskiy,21.47,82,100,5.89,45.09,133.51,1
Utevka,10.37,80,0,2.43,52.9,50.95,1
Puerto Penasco,32.82,44,75,7.2,31.32,-113.53,1
Tomatlan,30.57,61,51,3.63,19.93,-105.25,1
Schruns,9.92,87,0,2.1,47.08,9.92,1
Normandin,12,76,90,2.6,48.84,-72.53,1
Ukiah,21.33,49,1,5.1,39.15,-123.21,1
Longview,37.1,30,1,2.6,32.5,-94.74,1
Aracaju,26,69,40,4.1,-10.92,-37.08,1
Half Moon Bay,19.75,82,40,3.1,37.46,-122.43,1
Hay River,12,66,40,3.1,60.82,-115.79,1
Davila,28.07,81,100,12,18.47,120.58,1
Vesele,19.67,47,0,2.84,47.02,34.92,1
Tanete,25.67,81,0,8.62,-3.94,119.78,1
Clearwater,31.99,66,75,4.1,27.97,-82.8,1
Rovereto,13.25,93,90,4.1,45.89,11.05,1
Front Royal,26.73,44,90,4.6,38.92,-78.19,1
Huarmey,15.77,90,0,7.25,-10.07,-78.15,1
Santa Maria,27.48,39,40,5.1,-16.02,-48.01,1
Tarauaca,34.27,35,61,1.03,-8.16,-70.77,1
Tucumcari,34.45,18,1,6.7,35.17,-103.73,1
Bako,24.37,69,100,4.32,12.29,-0.73,1
Honningsvag,7.67,72,24,6.52,70.98,25.97,1
Ures,34.46,56,12,1.34,30.73,-112.95,1
Oktyabrskoye,7.12,87,0,2,56.73,85.44,1
Rio Grande,17.51,93,90,5.1,-32.03,-52.1,1
Mandali,28.67,27,0,3.04,33.75,45.55,1
Varhaug,11.36,76,0,4.6,58.61,5.65,1
Camapua,33.97,14,14,3.82,-19.53,-54.04,1
Bukoba,20,82,20,5.1,-1.33,31.81,1
Ketchikan,17.36,77,40,6.7,55.34,-131.65,1
Anloga,25,88,40,5.7,5.79,0.9,1
Nalvo,23.87,87,100,1.74,16.81,120.51,1
Khandbari,13.37,81,69,1.04,27.38,87.21,1
Rome,19.23,82,0,2.1,41.89,12.48,1
Roald,8.02,76,20,5.1,62.58,6.12,1
Tutoia,29,66,0,7.2,-2.76,-42.27,1
Presidencia Roque Saenz Pena,26.97,56,49,3.33,-26.79,-60.44,1
Sorong,23.27,90,97,3.68,-0.86,131.25,1
Faya,22.49,53,0,1.16,18.39,42.45,1
Limbang,27.32,88,75,1,4.75,115.01,1
Presidente Venceslau,35,19,0,4.1,-21.88,-51.85,1
Cap Malheureux,22.37,73,75,5.7,-19.98,57.61,1
Georgiyevskoye,15.87,68,0,6.16,44.16,39.25,1
Ulladulla,7.05,46,0,7.7,-35.36,150.48,1
Viramgam,28,94,75,1.5,23.12,72.05,1
Ibra,32.27,28,98,1.98,22.69,58.55,1
Ambon,14.45,76,0,3.6,47.55,-2.56,1
Pushkinskiye Gory,11.27,89,37,1.98,57.02,28.91,1
Itoigawa,26.57,75,3,1.1,37.02,137.87,1
Sorland,9.37,69,0,4.19,67.67,12.69,1
Smidovich,19.67,96,100,7.85,48.6,133.81,1
Tekeli,12.17,43,32,1.04,44.86,78.76,1
Honavar,26.87,84,100,10.6,14.28,74.45,1
Eirunepe,30.37,54,100,0.71,-6.66,-69.87,1
Carutapera,24.77,90,100,2.47,-1.2,-46.02,1
Murgab,18,42,0,4.1,37.5,61.97,1
Saint-Joseph,20.5,77,0,2.1,43.56,6.97,1
Olinda,7.29,87,40,3.6,-37.84,145.39,1
Luganville,24,69,75,1.5,-15.51,167.18,1
Markova,4,100,40,4,52.21,104.21,1
Morwa,15,54,0,3.1,-24.44,26.07,1
Fushun,19,100,67,2,41.89,123.95,1
Hobyo,24.77,77,9,12.57,5.35,48.53,1
Pirgos,24.58,50,20,4.1,35.12,25.72,1
Moctezuma,28.37,61,95,2.71,29.81,-109.68,1
Kologriv,11.67,97,46,0.69,58.83,44.31,1
Karaton,25,73,20,1.5,-6.34,106.1,1
Vila,18.44,77,0,1.5,45.18,8.4,1
Kant,10,66,0,3,42.89,74.85,1
Derzhavinsk,11.57,80,87,3.92,51.1,66.31,1
Regen,10.31,87,100,0.87,48.97,13.13,1
Tilichiki,8.47,85,100,1.52,60.47,166.1,1
Ipixuna,26,88,75,9.8,-1.76,-48.8,1
Flinders,10.66,46,0,7.7,-34.58,150.85,1
Jiaocheng,21.37,83,0,0.49,24.68,116.14,1
Omsukchan,0.47,97,100,1.69,62.53,155.8,1
Segou,23.57,96,89,0.72,12.41,-12.29,1
Garissa,23.87,62,100,9,-0.46,39.64,1
Trelew,13.17,38,5,4.94,-43.25,-65.31,1
Dudinka,11,93,0,8,69.41,86.18,1
Port Hedland,16,100,26,1.5,-20.31,118.58,1
Dauphin,16,51,20,3.1,51.15,-100.04,1
Pilar,17.85,63,75,3.6,-34.46,-58.91,1
Ulu-Telyak,9.27,91,98,1.8,54.91,56.98,1
Bria,21.47,92,63,1.27,6.54,21.99,1
Tommot,6.17,94,100,1.19,58.97,126.27,1
Slave Lake,17,77,20,3.1,55.28,-114.77,1
Iqaluit,6.82,56,75,5.7,63.75,-68.52,1
Dwarka,30.34,83,40,2.6,28.58,77.04,1
Labuhan,21.97,90,0,0.8,-2.54,115.51,1
Usinsk,10.07,95,46,4.16,66,57.56,1
San Pedro,17.24,68,49,2.68,-33.68,-59.66,1
